[{"index": 2, "coordinates": [-77.4105409, 39.41426879999999], "address": "Frederick, MD, USA", "institution": "NCI-Frederick", "category": "Research Institute", "lab": "MoCha"}, {"index": 3, "coordinates": [-71.10973349999999, 42.3736158], "address": "Cambridge, MA, USA", "institution": "Broad Institute ", "category": "Research Institute", "lab": "Hahn Lab"}, {"index": 4, "coordinates": [-58.3815591, -34.6036844], "address": "Buenos Aires, Argentina", "institution": "Hospital Italiano", "category": "Medical Center", "lab": ""}, {"index": 5, "coordinates": [-79.3831843, 43.653226], "address": "Toronto, ON, Canada", "institution": "Princess Margaret Cancer Centre", "category": "Medical Center", "lab": "Pugh Lab"}, {"index": 6, "coordinates": [150.9869597, -33.8085661], "address": "Westmead NSW 2145, Australia", "institution": "Westmead Institute for Medical Research", "category": "Research Institute", "lab": "Gynaecological Oncology Research Group"}, {"index": 7, "coordinates": [78.96288, 20.593684], "address": "India", "institution": "Cannot disclose", "category": "NA", "lab": "Cannot disclose"}, {"index": 8, "coordinates": [4.9041389, 52.3675734], "address": "Amsterdam, Netherlands", "institution": "NKI", "category": "Medical Center", "lab": ""}, {"index": 9, "coordinates": [11.0119611, 49.5896744], "address": "Erlangen, Germany", "institution": "Friedrich-Alexander-Universit\u00e4t Erlangen-N\u00fcrnberg", "category": "Research Institute", "lab": "Chair of Medical Informatics"}, {"index": 10, "coordinates": [6.6322734, 46.5196535], "address": "Lausanne, Switzerland", "institution": "University of Lausanne", "category": "Research Institute", "lab": "Giovanni Ciriello"}, {"index": 11, "coordinates": [4.9041389, 52.3675734], "address": "Amsterdam, Netherlands", "institution": "Netherlands Cancer Institute", "category": "Medical Center", "lab": "Hugo Horlings / computational pathology"}, {"index": 12, "coordinates": [-71.0588801, 42.3600825], "address": "Boston, MA, USA", "institution": "Dana Farber Cancer Institute", "category": "Medical Center", "lab": "KSG"}, {"index": 13, "coordinates": [-71.0588801, 42.3600825], "address": "Boston, MA, USA", "institution": "Dana Farber Cancer Institute", "category": "Medical Center", "lab": "KSG"}, {"index": 14, "coordinates": [-104.990251, 39.7392358], "address": "Denver, CO, USA", "institution": "University of Colorado Anschutz Medical Campus", "category": "Medical Center", "lab": "Colorado Center for Personalized Medicine"}, {"index": 15, "coordinates": [-87.6297982, 41.8781136], "address": "Chicago, IL, USA", "institution": "Northwestern University", "category": "Research Institute", "lab": "Jindan Yu"}, {"index": 16, "coordinates": [51.53103979999999, 25.2854473], "address": "Doha, Qatar", "institution": "Sidra Medicine", "category": "Medical Center", "lab": "Cancer group"}, {"index": 17, "coordinates": [0.121817, 52.205337], "address": "Cambridge, UK", "institution": "AstraZeneca", "category": "Company", "lab": ""}, {"index": 18, "coordinates": [-75.1652215, 39.9525839], "address": "Philadelphia, PA, USA", "institution": "Thomas Jefferson University", "category": "Research Institute", "lab": "Cancer Informatics"}, {"index": 19, "coordinates": [-86.158068, 39.768403], "address": "Indianapolis, IN, USA", "institution": "School of Medicine Indiana University", "category": "Medical Center", "lab": "Center of Data Science"}, {"index": 20, "coordinates": [-123.1207375, 49.2827291], "address": "Vancouver, BC, Canada", "institution": "BC Cancer Agency / UBC", "category": "Medical Center", "lab": "shah lab"}, {"index": 21, "coordinates": [-82.4571776, 27.950575], "address": "Tampa, FL, USA", "institution": "M2Gen", "category": "Company", "lab": "ORIEN"}, {"index": 22, "coordinates": [8.541694, 47.3768866], "address": "Z\u00fcrich, Switzerland", "institution": "ETH Z\u00fcrich", "category": "Research Institute", "lab": "NEXUS Personalized Health Technologies"}, {"index": 23, "coordinates": [-95.3698028, 29.7604267], "address": "Houston, TX, USA", "institution": "MD Anderson Cancer Center", "category": "Medical Center", "lab": "Computational Genomics"}, {"index": 24, "coordinates": [-1.2577263, 51.7520209], "address": "Oxford, UK", "institution": "University of Oxford", "category": "Research Institute", "lab": "Department of Oncology"}, {"index": 25, "coordinates": [-96.79698789999999, 32.7766642], "address": "Dallas, TX, USA", "institution": "UTSOUTHWESTERN Medical Center", "category": "Medical Center", "lab": ""}, {"index": 26, "coordinates": [151.2092955, -33.8688197], "address": "Sydney NSW, Australia", "institution": "Intersect Australia", "category": "Company", "lab": ""}, {"index": 27, "coordinates": [-74.0059728, 40.7127753], "address": "New York, NY, USA", "institution": "New York Genome Center", "category": "Research Institute", "lab": "Compbio"}, {"index": 28, "coordinates": [-92.9593797, 44.9238552], "address": "Woodbury, MN, USA", "institution": "University of Minnesota Masonic Cancer Center", "category": "Medical Center", "lab": "Jinhua Wang/IHI"}, {"index": 29, "coordinates": [-122.1660756, 37.42410599999999], "address": "Stanford, CA, USA", "institution": "Stanford University", "category": "Research Institute", "lab": "Ji Lab"}, {"index": 30, "coordinates": [-76.6121893, 39.2903848], "address": "Baltimore, MD, USA", "institution": "Johns Hopkins University", "category": "Medical Center", "lab": "Oncology BioInformatics"}, {"index": 31, "coordinates": [-58.3815591, -34.6036844], "address": "Buenos Aires, Argentina", "institution": "Hospital Italiano de Buenos Aires", "category": "Medical Center", "lab": "Bioinformatica"}, {"index": 32, "coordinates": [16.6068371, 49.1950602], "address": "Brno, Czechia", "institution": "Institute of Computer Science, Masaryk University", "category": "Research Institute", "lab": "Division of IT infrastructures"}, {"index": 33, "coordinates": [-92.4801989, 44.0121221], "address": "Rochester, MN, USA", "institution": "Mayo Clinic", "category": "Medical Center", "lab": ""}, {"index": 34, "coordinates": [-74.0059728, 40.7127753], "address": "New York, NY, USA", "institution": "New York Genome Center", "category": "Research Institute", "lab": "Computational Biology"}, {"index": 35, "coordinates": [-112.0740373, 33.4483771], "address": "Phoenix, AZ, USA", "institution": "TGen", "category": "Company", "lab": ""}, {"index": 36, "coordinates": [-118.2436849, 34.0522342], "address": "Los Angeles, CA, USA", "institution": "UCLA", "category": "Medical Center", "lab": "Chemistry"}, {"index": 37, "coordinates": [-46.63330939999999, -23.5505199], "address": "S\u00e3o Paulo, State of S\u00e3o Paulo, Brazil", "institution": "A.C.Camargo", "category": "Medical Center", "lab": "Bioinformatics"}, {"index": 38, "coordinates": [0.121817, 52.205337], "address": "Cambridge, UK", "institution": "MRC Cancer Unit", "category": "Medical Center", "lab": "Fitzgerald"}, {"index": 39, "coordinates": [5.1214201, 52.09073739999999], "address": "Utrecht, Netherlands", "institution": "The Hyve", "category": "Company", "lab": "Cancer Genomics Team"}, {"index": 40, "coordinates": [-0.1277583, 51.5073509], "address": "London, UK", "institution": "The Institute of Cancer Research, London", "category": "Research Institute", "lab": "Breast Cancer Research Bioinformatics Team"}, {"index": 41, "coordinates": [140.1065366, 35.6074041], "address": "Chiba, Japan", "institution": "I belong to Chiba University, but the installation is for personal use.", "category": "Research Institute", "lab": ""}, {"index": 42, "coordinates": [-74.0059728, 40.7127753], "address": "New York, NY, USA", "institution": "Memorial Sloan Kettering Cancer Center", "category": "Medical Center", "lab": "Knowledge Systems"}, {"index": 43, "coordinates": [-74.0059728, 40.7127753], "address": "New York, NY, USA", "institution": "Memorial Sloan Kettering Cancer Center", "category": "Medical Center", "lab": "AACR GENIE"}, {"index": 60, "coordinates": [-0.57918, 44.837789], "address": "Bordeaux, France", "institution": "Institut Bergoni\u00e9", "category": "", "lab": ""}, {"index": 62, "coordinates": [113.264385, 23.12911], "address": "Guangzhou, Guangdong Province, China", "institution": "Sun Yat-sen University Cancer Center", "category": "", "lab": ""}, {"index": 63, "coordinates": [51.53103979999999, 25.2854473], "address": "Doha, Qatar", "institution": "Sidra Medicine", "category": "", "lab": "Cancer Program"}, {"index": 64, "coordinates": [-76.6121893, 39.2903848], "address": "Baltimore, MD, USA", "institution": "Johns Hopkins", "category": "", "lab": "Baras"}]